{
"type": "FeatureCollection",
"name": "hospi_EDAR",
"crs": { "type": "name", "properties": { "name": "urn:ogc:def:crs:OGC:1.3:CRS84" } },
"features": [
{ "type": "Feature", "properties": { "name": "Hospital de Santa Caterina", "Field2": "GIRONA" }, "geometry": { "type": "Point", "coordinates": [ 2.796692, 41.9695422 ] } },
{ "type": "Feature", "properties": { "name": "Hospital Comarcal de l'Alt Penedès", "Field2": "VILAFRANCA DEL PENEDÈS" }, "geometry": { "type": "Point", "coordinates": [ 1.704741, 41.3565909 ] } },
{ "type": "Feature", "properties": { "name": "Parc Hospitalari Martí i Julià (Hospital de Salt)", "Field2": "GIRONA" }, "geometry": { "type": "Point", "coordinates": [ 2.7965972, 41.9705243 ] } },
{ "type": "Feature", "properties": { "name": "Hospital Sant Joan de Déu de Manresa", "Field2": "MANRESA" }, "geometry": { "type": "Point", "coordinates": [ 1.8377411, 41.7206577 ] } },
{ "type": "Feature", "properties": { "name": "Hospital de Sant Celoni - Baix Montseny", "Field2": "NO ASSISTIT" }, "geometry": { "type": "Point", "coordinates": [ 2.4858797, 41.687856 ] } },
{ "type": "Feature", "properties": { "name": "Hospital Universitari Germans Trias i Pujol", "Field2": "BESÒS" }, "geometry": { "type": "Point", "coordinates": [ 2.2378801, 41.4810989 ] } },
{ "type": "Feature", "properties": { "name": "Hospital del Mar", "Field2": "BESÒS; PRAT DE LLOBREGAT, EL" }, "geometry": { "type": "Point", "coordinates": [ 2.1940114, 41.383781 ] } },
{ "type": "Feature", "properties": { "name": "Hospital de Terrassa", "Field2": "TERRASSA" }, "geometry": { "type": "Point", "coordinates": [ 2.0530676, 41.5567863 ] } },
{ "type": "Feature", "properties": { "name": "Hospital Mútua de Terrassa", "Field2": "TERRASSA" }, "geometry": { "type": "Point", "coordinates": [ 2.0175179, 41.5649487 ] } },
{ "type": "Feature", "properties": { "name": "Hospital de Mataró i Maresme", "Field2": "MATARÓ" }, "geometry": { "type": "Point", "coordinates": [ 2.4301522, 41.5556209 ] } },
{ "type": "Feature", "properties": { "name": "Hospital Sant Rafael", "Field2": "BESÒS; PRAT DE LLOBREGAT, EL" }, "geometry": { "type": "Point", "coordinates": [ 2.1410218, 41.4257913 ] } },
{ "type": "Feature", "properties": { "name": "Hospital General Vall d'Hebron", "Field2": "BESÒS; PRAT DE LLOBREGAT, EL" }, "geometry": { "type": "Point", "coordinates": [ 2.1416677, 41.4277641 ] } },
{ "type": "Feature", "properties": { "name": "Hospital de l'Esperit Sant", "Field2": "BESÒS" }, "geometry": { "type": "Point", "coordinates": [ 2.2128933, 41.4378737 ] } },
{ "type": "Feature", "properties": { "name": "Hospital Quiron", "Field2": "BESÒS; PRAT DE LLOBREGAT, EL" }, "geometry": { "type": "Point", "coordinates": [ 2.1385969, 41.4158555 ] } },
{ "type": "Feature", "properties": { "name": "Parc Sanitari Pere Virgili", "Field2": "BESÒS; PRAT DE LLOBREGAT, EL" }, "geometry": { "type": "Point", "coordinates": [ 2.1408707, 41.4153287 ] } },
{ "type": "Feature", "properties": { "name": "Hospital Dr. Josep Trueta", "Field2": "GIRONA" }, "geometry": { "type": "Point", "coordinates": [ 2.8201258, 41.997625 ] } },
{ "type": "Feature", "properties": { "name": "Hospital-Asil de Granollers", "Field2": "GRANOLLERS; MONTORNÈS DEL VALLÈS" }, "geometry": { "type": "Point", "coordinates": [ 2.296247, 41.6140085 ] } },
{ "type": "Feature", "properties": { "name": "Sociosanitari Francoli", "Field2": "TARRAGONA" }, "geometry": { "type": "Point", "coordinates": [ 1.2393135, 41.1249493 ] } },
{ "type": "Feature", "properties": { "name": "Hospital Universitari de Tarragona Joan XXIII", "Field2": "TARRAGONA" }, "geometry": { "type": "Point", "coordinates": [ 1.2383768, 41.1246068 ] } },
{ "type": "Feature", "properties": { "name": "Hospital Casa Blanca", "Field2": "TARRAGONA" }, "geometry": { "type": "Point", "coordinates": [ 1.2636481, 41.1213944 ] } },
{ "type": "Feature", "properties": { "name": "Institut Guttmann", "Field2": "BESÒS" }, "geometry": { "type": "Point", "coordinates": [ 2.2370021, 41.4788818 ] } },
{ "type": "Feature", "properties": { "name": "Clínica Diagonal", "Field2": "PRAT DE LLOBREGAT, EL" }, "geometry": { "type": "Point", "coordinates": [ 2.0977085, 41.3789216 ] } },
{ "type": "Feature", "properties": { "name": "Hospital General de Catalunya", "Field2": "MONTCADA; RUBÍ; SANT FELIU DE LLOBREGAT" }, "geometry": { "type": "Point", "coordinates": [ 2.0446332, 41.4749104 ] } },
{ "type": "Feature", "properties": { "name": "Hospital de Sant LLorenç", "Field2": "GAVÀ\/VILADECANS" }, "geometry": { "type": "Point", "coordinates": [ 2.014323, 41.3123133 ] } },
{ "type": "Feature", "properties": { "name": "Asepeyo", "Field2": "MONTCADA; RUBÍ; SANT FELIU DE LLOBREGAT" }, "geometry": { "type": "Point", "coordinates": [ 2.0784329, 41.4901025 ] } },
{ "type": "Feature", "properties": { "name": "Clínica del Pilar", "Field2": "BESÒS; PRAT DE LLOBREGAT, EL" }, "geometry": { "type": "Point", "coordinates": [ 2.1482117, 41.400212 ] } },
{ "type": "Feature", "properties": { "name": "Hospital de Dia Sant Jordi", "Field2": "TERRASSA" }, "geometry": { "type": "Point", "coordinates": [ 2.0042665, 41.5553278 ] } },
{ "type": "Feature", "properties": { "name": "Hospital Neuropsiquiàtric Sagrat Cor", "Field2": "MARTORELL; SANT FELIU DE LLOBREGAT" }, "geometry": { "type": "Point", "coordinates": [ 1.9095689, 41.4946006 ] } },
{ "type": "Feature", "properties": { "name": "Clínica Teknon", "Field2": "BESÒS; PRAT DE LLOBREGAT, EL" }, "geometry": { "type": "Point", "coordinates": [ 2.1278903, 41.4063869 ] } },
{ "type": "Feature", "properties": { "name": "Hospital Universitari Parc Taulí", "Field2": "SABADELL\/RIU SEC" }, "geometry": { "type": "Point", "coordinates": [ 2.1112563, 41.5570445 ] } },
{ "type": "Feature", "properties": { "name": "Hospital Sant Bernabé", "Field2": "BERGA" }, "geometry": { "type": "Point", "coordinates": [ 1.8521518, 42.1066474 ] } },
{ "type": "Feature", "properties": { "name": "Hospital General de l'Hospitalet", "Field2": "PRAT DE LLOBREGAT, EL" }, "geometry": { "type": "Point", "coordinates": [ 2.107182, 41.3741705 ] } },
{ "type": "Feature", "properties": { "name": "Hospital de Campdevànol", "Field2": "RIPOLL" }, "geometry": { "type": "Point", "coordinates": [ 2.1667129, 42.222657 ] } },
{ "type": "Feature", "properties": { "name": "Salus XXI Medical Group", "Field2": "MONTCADA; RUBÍ; SANT FELIU DE LLOBREGAT" }, "geometry": { "type": "Point", "coordinates": [ 2.0608001, 41.4811493 ] } },
{ "type": "Feature", "properties": { "name": "Hospital de Sant Llàtzer", "Field2": "TERRASSA" }, "geometry": { "type": "Point", "coordinates": [ 2.0172054, 41.5626134 ] } },
{ "type": "Feature", "properties": { "name": "Sant Joan de Déu", "Field2": "MARTORELL; SANT FELIU DE LLOBREGAT" }, "geometry": { "type": "Point", "coordinates": [ 1.9203655, 41.4717117 ] } },
{ "type": "Feature", "properties": { "name": "Hospital Clínic", "Field2": "BESÒS; PRAT DE LLOBREGAT, EL" }, "geometry": { "type": "Point", "coordinates": [ 2.1522417, 41.3894753 ] } },
{ "type": "Feature", "properties": { "name": "Institut Pere Mata", "Field2": "REUS" }, "geometry": { "type": "Point", "coordinates": [ 1.0853343, 41.165961 ] } },
{ "type": "Feature", "properties": { "name": "Clínica Salus Infirmorum", "Field2": "BANYOLES" }, "geometry": { "type": "Point", "coordinates": [ 2.761239, 42.1147776 ] } },
{ "type": "Feature", "properties": { "name": "Hospital de Mollet", "Field2": "LLAGOSTA, LA; MONTORNÈS DEL VALLÈS" }, "geometry": { "type": "Point", "coordinates": [ 2.2024802, 41.5438271 ] } },
{ "type": "Feature", "properties": { "name": "Hospital de Figueres", "Field2": "FIGUERES" }, "geometry": { "type": "Point", "coordinates": [ 2.9537761, 42.2683382 ] } },
{ "type": "Feature", "properties": { "name": "Hospital del Vendrell", "Field2": "RIERA DE LA BISBAL" }, "geometry": { "type": "Point", "coordinates": [ 1.5537401, 41.227101 ] } },
{ "type": "Feature", "properties": { "name": "Hospital transfronterer de la Cerdanya", "Field2": "PUIGCERDÀ" }, "geometry": { "type": "Point", "coordinates": [ 1.9300879, 42.4440626 ] } },
{ "type": "Feature", "properties": { "name": "Hospital de Sant Miquel. Fundació Alba", "Field2": "BESÒS; PRAT DE LLOBREGAT, EL" }, "geometry": { "type": "Point", "coordinates": [ 2.1456184, 41.4355012 ] } },
{ "type": "Feature", "properties": { "name": "Hospital de Palamós", "Field2": "PALAMÓS" }, "geometry": { "type": "Point", "coordinates": [ 3.1316865, 41.8528043 ] } },
{ "type": "Feature", "properties": { "name": "Espitau Val d'Aran", "Field2": "VIELHA E MIJARAN" }, "geometry": { "type": "Point", "coordinates": [ 0.7974037, 42.7022147 ] } },
{ "type": "Feature", "properties": { "name": "Hospital Universitari de Santa Maria", "Field2": "LLEIDA" }, "geometry": { "type": "Point", "coordinates": [ 0.6176061, 41.623743 ] } },
{ "type": "Feature", "properties": { "name": "Hospital Sociosanitari de Mollet", "Field2": "LLAGOSTA, LA; MONTORNÈS DEL VALLÈS" }, "geometry": { "type": "Point", "coordinates": [ 2.2110255, 41.5411404 ] } },
{ "type": "Feature", "properties": { "name": "Hospital Comarcal de Móra d'Ebre", "Field2": "MÓRA D'EBRE\/MÓRA LA NOVA" }, "geometry": { "type": "Point", "coordinates": [ 0.6388443, 41.0952891 ] } },
{ "type": "Feature", "properties": { "name": "Parc Sanitari Sant Joan de Déu", "Field2": "GAVÀ\/VILADECANS; PRAT DE LLOBREGAT, EL" }, "geometry": { "type": "Point", "coordinates": [ 2.0344361, 41.3527576 ] } },
{ "type": "Feature", "properties": { "name": "Hospital de Puigcerdà", "Field2": "PUIGCERDÀ" }, "geometry": { "type": "Point", "coordinates": [ 1.9261003, 42.4323198 ] } },
{ "type": "Feature", "properties": { "name": "hospital de l'Esperança", "Field2": "BESÒS; PRAT DE LLOBREGAT, EL" }, "geometry": { "type": "Point", "coordinates": [ 2.1545553, 41.4106362 ] } },
{ "type": "Feature", "properties": { "name": "Hospital Universitari de Bellvitge", "Field2": "PRAT DE LLOBREGAT, EL" }, "geometry": { "type": "Point", "coordinates": [ 2.1046476, 41.3452979 ] } },
{ "type": "Feature", "properties": { "name": "Hospital de la Santa Creu i Sant Pau", "Field2": "BESÒS; PRAT DE LLOBREGAT, EL" }, "geometry": { "type": "Point", "coordinates": [ 2.1743117, 41.4151353 ] } },
{ "type": "Feature", "properties": { "name": "Fundació Puigvert - Iuna", "Field2": "BESÒS; PRAT DE LLOBREGAT, EL" }, "geometry": { "type": "Point", "coordinates": [ 2.1727758, 41.4129259 ] } },
{ "type": "Feature", "properties": { "name": "Hospital de Sant Pau i Santa tecla", "Field2": "TARRAGONA" }, "geometry": { "type": "Point", "coordinates": [ 1.2546063, 41.1160571 ] } },
{ "type": "Feature", "properties": { "name": "Cliníca Sagrada Família", "Field2": "BESÒS; PRAT DE LLOBREGAT, EL" }, "geometry": { "type": "Point", "coordinates": [ 2.1341745, 41.4004669 ] } },
{ "type": "Feature", "properties": { "name": "Hospital Comarcal Sant Jaume", "Field2": "NO ASSISTIT" }, "geometry": { "type": "Point", "coordinates": [ 2.6566387, 41.6150296 ] } },
{ "type": "Feature", "properties": { "name": "Hospital Universitari de Vic", "Field2": "VIC" }, "geometry": { "type": "Point", "coordinates": [ 2.2601748, 41.9369327 ] } },
{ "type": "Feature", "properties": { "name": "Hospital Comarcal d'Igualada", "Field2": "IGUALADA" }, "geometry": { "type": "Point", "coordinates": [ 1.6200718, 41.5886921 ] } },
{ "type": "Feature", "properties": { "name": "Hospital Universitari de la Santa Creu", "Field2": "VIC" }, "geometry": { "type": "Point", "coordinates": [ 2.2508544, 41.9277452 ] } },
{ "type": "Feature", "properties": { "name": "Hospital del Mar-urgències", "Field2": "BESÒS; PRAT DE LLOBREGAT, EL" }, "geometry": { "type": "Point", "coordinates": [ 2.1933174, 41.3836763 ] } },
{ "type": "Feature", "properties": { "name": "Hospital Universitari Arnau de Vilanova", "Field2": "LLEIDA" }, "geometry": { "type": "Point", "coordinates": [ 0.6127798, 41.6268627 ] } },
{ "type": "Feature", "properties": { "name": "Hospital de Sant Joan de Déu", "Field2": "LLEIDA" }, "geometry": { "type": "Point", "coordinates": [ 0.6349314, 41.6004871 ] } },
{ "type": "Feature", "properties": { "name": "Hospital de la Santa Creu", "Field2": "TORTOSA-ROQUETES" }, "geometry": { "type": "Point", "coordinates": [ 0.5095964, 40.827839 ] } },
{ "type": "Feature", "properties": { "name": "Consorci Mar Parc de Salut de Barcelona", "Field2": "BESÒS; PRAT DE LLOBREGAT, EL" }, "geometry": { "type": "Point", "coordinates": [ 2.2185082, 41.4127594 ] } },
{ "type": "Feature", "properties": { "name": "Hospital Sant Joan de Déu", "Field2": "BESÒS; PRAT DE LLOBREGAT, EL" }, "geometry": { "type": "Point", "coordinates": [ 2.1018898, 41.3843515 ] } },
{ "type": "Feature", "properties": { "name": "Fundació sanitaria Sant Pere Claver", "Field2": "BESÒS; PRAT DE LLOBREGAT, EL" }, "geometry": { "type": "Point", "coordinates": [ 2.1733834, 41.3730597 ] } },
{ "type": "Feature", "properties": { "name": "Hospital Residència Sant Camil", "Field2": "VILANOVA I LA GELTRÚ" }, "geometry": { "type": "Point", "coordinates": [ 1.7663871, 41.2536332 ] } },
{ "type": "Feature", "properties": { "name": "Complex Assistencial en Salut Mental Benito Menni", "Field2": "GAVÀ\/VILADECANS; PRAT DE LLOBREGAT, EL" }, "geometry": { "type": "Point", "coordinates": [ 2.0369672, 41.3497068 ] } },
{ "type": "Feature", "properties": { "name": "Hospital de Sant Joan Despí Moisès Broggi", "Field2": "PRAT DE LLOBREGAT, EL" }, "geometry": { "type": "Point", "coordinates": [ 2.0724737, 41.3733236 ] } },
{ "type": "Feature", "properties": { "name": "Fundació Hospital Asil de Granollers", "Field2": "GRANOLLERS; MONTORNÈS DEL VALLÈS" }, "geometry": { "type": "Point", "coordinates": [ 2.2959097, 41.6134098 ] } },
{ "type": "Feature", "properties": { "name": "Hospital Comarcal de la Selva", "Field2": "BLANES" }, "geometry": { "type": "Point", "coordinates": [ 2.802138, 41.6873345 ] } },
{ "type": "Feature", "properties": { "name": "Clínica Nostra Senyora del Remei", "Field2": "BESÒS; PRAT DE LLOBREGAT, EL" }, "geometry": { "type": "Point", "coordinates": [ 2.1598124, 41.4096404 ] } },
{ "type": "Feature", "properties": { "name": "Hospital Asil Sant Jaume", "Field2": "BLANES" }, "geometry": { "type": "Point", "coordinates": [ 2.7870169, 41.6761848 ] } },
{ "type": "Feature", "properties": { "name": "Clinica Delfos", "Field2": "BESÒS; PRAT DE LLOBREGAT, EL" }, "geometry": { "type": "Point", "coordinates": [ 2.1426945, 41.4134446 ] } },
{ "type": "Feature", "properties": { "name": "Hospital Sant Jaume de Manlleu", "Field2": "MANLLEU" }, "geometry": { "type": "Point", "coordinates": [ 2.2874595, 42.002003 ] } },
{ "type": "Feature", "properties": { "name": "Hospital Universitari Sant Joan", "Field2": "REUS" }, "geometry": { "type": "Point", "coordinates": [ 1.1233642, 41.1449593 ] } },
{ "type": "Feature", "properties": { "name": "Hospital Comarcal de Sant Antoni Abat", "Field2": "VILANOVA I LA GELTRÚ" }, "geometry": { "type": "Point", "coordinates": [ 1.7223936, 41.2287946 ] } },
{ "type": "Feature", "properties": { "name": "Capio Hospital Universitari Sagrat Cor", "Field2": "BESÒS; PRAT DE LLOBREGAT, EL" }, "geometry": { "type": "Point", "coordinates": [ 2.1456033, 41.3889427 ] } },
{ "type": "Feature", "properties": { "name": "Hospital de Tortosa Verge de la Cinta", "Field2": "TORTOSA-ROQUETES" }, "geometry": { "type": "Point", "coordinates": [ 0.5242702, 40.8111476 ] } },
{ "type": "Feature", "properties": { "name": "Hospital Universitari Quirón Dexeus", "Field2": "BESÒS; PRAT DE LLOBREGAT, EL" }, "geometry": { "type": "Point", "coordinates": [ 2.1257795, 41.3848057 ] } },
{ "type": "Feature", "properties": { "name": "Hospital Casa Maternitat", "Field2": "BESÒS; PRAT DE LLOBREGAT, EL" }, "geometry": { "type": "Point", "coordinates": [ 2.123552, 41.3852022 ] } },
{ "type": "Feature", "properties": { "name": "Cruz Roja", "Field2": "SABADELL\/RIU SEC" }, "geometry": { "type": "Point", "coordinates": [ 2.116169, 41.5449072 ] } },
{ "type": "Feature", "properties": { "name": "Hospital de Barcelona", "Field2": "BESÒS; PRAT DE LLOBREGAT, EL" }, "geometry": { "type": "Point", "coordinates": [ 2.1297441, 41.3898885 ] } },
{ "type": "Feature", "properties": { "name": "Residència Sant Martí - Fundació Vella Terra", "Field2": "NO ASSISTIT" }, "geometry": { "type": "Point", "coordinates": [ 2.5399589, 41.6099086 ] } },
{ "type": "Feature", "properties": { "name": "Residència Verge del Remei", "Field2": "NO ASSISTIT" }, "geometry": { "type": "Point", "coordinates": [ 2.5399673, 41.6079669 ] } },
{ "type": "Feature", "properties": { "name": "Clínica Sant Josep", "Field2": "MANRESA" }, "geometry": { "type": "Point", "coordinates": [ 1.8324917, 41.722664 ] } },
{ "type": "Feature", "properties": { "name": "Hospital Mare de Déu de la Mercè", "Field2": "BESÒS; PRAT DE LLOBREGAT, EL" }, "geometry": { "type": "Point", "coordinates": [ 2.161915, 41.4378681 ] } },
{ "type": "Feature", "properties": { "name": "Fundació Sant Hospital", "Field2": "MONTFERRER" }, "geometry": { "type": "Point", "coordinates": [ 1.4609585, 42.3548545 ] } },
{ "type": "Feature", "properties": { "name": "Hospital Hestia Balaguer", "Field2": "BALAGUER" }, "geometry": { "type": "Point", "coordinates": [ 0.8197245, 41.7890959 ] } },
{ "type": "Feature", "properties": { "name": "Hospital del Mar", "Field2": "BESÒS; PRAT DE LLOBREGAT, EL" }, "geometry": { "type": "Point", "coordinates": [ 2.1938899, 41.3838677 ] } },
{ "type": "Feature", "properties": { "name": "Hospital Duran i Reynals", "Field2": "PRAT DE LLOBREGAT, EL" }, "geometry": { "type": "Point", "coordinates": [ 2.1114594, 41.3452638 ] } },
{ "type": "Feature", "properties": { "name": "Hospital Comarcal del Pallars", "Field2": "TREMP" }, "geometry": { "type": "Point", "coordinates": [ 0.8973612, 42.1644941 ] } },
{ "type": "Feature", "properties": { "name": "Dos de Maig", "Field2": "BESÒS; PRAT DE LLOBREGAT, EL" }, "geometry": { "type": "Point", "coordinates": [ 2.1765803, 41.4109133 ] } },
{ "type": "Feature", "properties": { "name": "Hospital Evangèlic", "Field2": "BESÒS; PRAT DE LLOBREGAT, EL" }, "geometry": { "type": "Point", "coordinates": [ 2.1590499, 41.4111635 ] } },
{ "type": "Feature", "properties": { "name": "Hospital Comarcal d'Amposta", "Field2": "AMPOSTA" }, "geometry": { "type": "Point", "coordinates": [ 0.5806326, 40.7068178 ] } },
{ "type": "Feature", "properties": { "name": "Unitat Polivalent d'Amposta", "Field2": "AMPOSTA" }, "geometry": { "type": "Point", "coordinates": [ 0.5759553, 40.7090381 ] } },
{ "type": "Feature", "properties": { "name": "Pius Hospital de Valls", "Field2": "VALLS POBLE" }, "geometry": { "type": "Point", "coordinates": [ 1.2513744, 41.2830927 ] } },
{ "type": "Feature", "properties": { "name": "Hospital d'Olot i comarcal de la Garrotxa", "Field2": "OLOT" }, "geometry": { "type": "Point", "coordinates": [ 2.4675162, 42.1874622 ] } },
{ "type": "Feature", "properties": { "name": "Hospital Lleuger Antoni de Gimbernat", "Field2": "NO ASSISTIT" }, "geometry": { "type": "Point", "coordinates": [ 1.0574966, 41.0715397 ] } },
{ "type": "Feature", "properties": { "name": "Hospital de Nens de Barcelona", "Field2": "BESÒS; PRAT DE LLOBREGAT, EL" }, "geometry": { "type": "Point", "coordinates": [ 2.1733003, 41.3970879 ] } },
{ "type": "Feature", "properties": { "name": "Clínica del Vallès", "Field2": "SABADELL\/RIU SEC" }, "geometry": { "type": "Point", "coordinates": [ 2.1177936, 41.532514 ] } },
{ "type": "Feature", "properties": { "name": "Mutua Universal", "Field2": "TORTOSA-ROQUETES" }, "geometry": { "type": "Point", "coordinates": [ 0.5213739, 40.8037029 ] } },
{ "type": "Feature", "properties": { "name": "Centre mèdic Sanitas Robresa", "Field2": "BESÒS; PRAT DE LLOBREGAT, EL" }, "geometry": { "type": "Point", "coordinates": [ 2.1496367, 41.3996176 ] } },
{ "type": "Feature", "properties": { "name": "Cruz Roja Sabadell", "Field2": "SABADELL\/RIU SEC" }, "geometry": { "type": "Point", "coordinates": [ 2.1162827, 41.5450226 ] } },
{ "type": "Feature", "properties": { "name": "Hospital Plató", "Field2": "BESÒS; PRAT DE LLOBREGAT, EL" }, "geometry": { "type": "Point", "coordinates": [ 2.1418871, 41.4016023 ] } }
]
}
