{
"type": "FeatureCollection",
"name": "hospi_EDAR",
"crs": { "type": "name", "properties": { "name": "urn:ogc:def:crs:OGC:1.3:CRS84" } },
"features": [
{ "type": "Feature", "properties": { "fid": 1, "id": "way\/583367640", "name": "Hospital Sant Jaume de Manlleu", "CODI.EDAR": "DMAN", "NOM.EDAR": "MANLLEU" }, "geometry": { "type": "Point", "coordinates": [ 2.2874595, 42.002003 ] } },
{ "type": "Feature", "properties": { "fid": 2, "id": "node\/719553597", "name": "Fundació Sant Hospital", "CODI.EDAR": "DMOF", "NOM.EDAR": "MONTFERRER" }, "geometry": { "type": "Point", "coordinates": [ 1.4609585, 42.3548545 ] } },
{ "type": "Feature", "properties": { "fid": 3, "id": "way\/27867346", "name": "Hospital de Terrassa", "CODI.EDAR": "DTRS", "NOM.EDAR": "TERRASSA" }, "geometry": { "type": "Point", "coordinates": [ 2.0530676, 41.5567863 ] } },
{ "type": "Feature", "properties": { "fid": 4, "id": "way\/28176309", "name": "Hospital Mútua de Terrassa", "CODI.EDAR": "DTRS", "NOM.EDAR": "TERRASSA" }, "geometry": { "type": "Point", "coordinates": [ 2.0175179, 41.5649487 ] } },
{ "type": "Feature", "properties": { "fid": 5, "id": "way\/132839206", "name": "Hospital de Dia Sant Jordi", "CODI.EDAR": "DTRS", "NOM.EDAR": "TERRASSA" }, "geometry": { "type": "Point", "coordinates": [ 2.0042665, 41.5553278 ] } },
{ "type": "Feature", "properties": { "fid": 6, "id": "way\/168860731", "name": "Hospital de Sant Llàtzer", "CODI.EDAR": "DTRS", "NOM.EDAR": "TERRASSA" }, "geometry": { "type": "Point", "coordinates": [ 2.0172054, 41.5626134 ] } },
{ "type": "Feature", "properties": { "fid": 7, "id": "way\/160246302", "name": "Hospital de Campdevànol", "CODI.EDAR": "DRIP", "NOM.EDAR": "RIPOLL" }, "geometry": { "type": "Point", "coordinates": [ 2.1667129, 42.222657 ] } },
{ "type": "Feature", "properties": { "fid": 8, "id": "way\/34303722", "name": "Hospital de l'Esperit Sant", "CODI.EDAR": "DBSS", "NOM.EDAR": "BESÒS" }, "geometry": { "type": "Point", "coordinates": [ 2.2128933, 41.4378737 ] } },
{ "type": "Feature", "properties": { "fid": 9, "id": "way\/204164831", "name": "Hospital Universitari de Santa Maria", "CODI.EDAR": "DLLE", "NOM.EDAR": "LLEIDA" }, "geometry": { "type": "Point", "coordinates": [ 0.6176061, 41.623743 ] } },
{ "type": "Feature", "properties": { "fid": 10, "id": "way\/416561068", "name": "Hospital Universitari Arnau de Vilanova", "CODI.EDAR": "DLLE", "NOM.EDAR": "LLEIDA" }, "geometry": { "type": "Point", "coordinates": [ 0.6127798, 41.6268627 ] } },
{ "type": "Feature", "properties": { "fid": 11, "id": "way\/421084168", "name": "Hospital de Sant Joan de Déu", "CODI.EDAR": "DLLE", "NOM.EDAR": "LLEIDA" }, "geometry": { "type": "Point", "coordinates": [ 0.6349314, 41.6004871 ] } },
{ "type": "Feature", "properties": { "fid": 12, "id": "way\/457989784", "name": "Hospital Residència Sant Camil", "CODI.EDAR": "DVLG", "NOM.EDAR": "VILANOVA I LA GELTRÚ" }, "geometry": { "type": "Point", "coordinates": [ 1.7663871, 41.2536332 ] } },
{ "type": "Feature", "properties": { "fid": 13, "id": "way\/149307559", "name": "Hospital Universitari Parc Taulí", "CODI.EDAR": "DSRS", "NOM.EDAR": "SABADELL\/RIU SEC" }, "geometry": { "type": "Point", "coordinates": [ 2.1112563, 41.5570445 ] } },
{ "type": "Feature", "properties": { "fid": 14, "id": "way\/649527517", "name": "Cruz Roja", "CODI.EDAR": "DSRS", "NOM.EDAR": "SABADELL\/RIU SEC" }, "geometry": { "type": "Point", "coordinates": [ 2.116169, 41.5449072 ] } },
{ "type": "Feature", "properties": { "fid": 15, "id": "node\/5808989577", "name": "Clínica del Vallès", "CODI.EDAR": "DSRS", "NOM.EDAR": "SABADELL\/RIU SEC" }, "geometry": { "type": "Point", "coordinates": [ 2.1177936, 41.532514 ] } },
{ "type": "Feature", "properties": { "fid": 16, "id": "node\/6053107259", "name": "Cruz Roja Sabadell", "CODI.EDAR": "DSRS", "NOM.EDAR": "SABADELL\/RIU SEC" }, "geometry": { "type": "Point", "coordinates": [ 2.1162827, 41.5450226 ] } },
{ "type": "Feature", "properties": { "fid": 17, "id": "way\/183795394", "name": "Hospital de Figueres", "CODI.EDAR": "DFIG", "NOM.EDAR": "FIGUERES" }, "geometry": { "type": "Point", "coordinates": [ 2.9537761, 42.2683382 ] } },
{ "type": "Feature", "properties": { "fid": 18, "id": "way\/177688046", "name": "Institut Pere Mata", "CODI.EDAR": "DRUS", "NOM.EDAR": "REUS" }, "geometry": { "type": "Point", "coordinates": [ 1.0853343, 41.165961 ] } },
{ "type": "Feature", "properties": { "fid": 19, "id": "way\/601144107", "name": "Hospital Universitari Sant Joan", "CODI.EDAR": "DRUS", "NOM.EDAR": "REUS" }, "geometry": { "type": "Point", "coordinates": [ 1.1233642, 41.1449593 ] } },
{ "type": "Feature", "properties": { "fid": 20, "id": "node\/515969245", "name": "Hospital Comarcal de la Selva", "CODI.EDAR": "DBLN", "NOM.EDAR": "BLANES" }, "geometry": { "type": "Point", "coordinates": [ 2.802138, 41.6873345 ] } },
{ "type": "Feature", "properties": { "fid": 21, "id": "node\/530106736", "name": "Hospital Asil Sant Jaume", "CODI.EDAR": "DBLN", "NOM.EDAR": "BLANES" }, "geometry": { "type": "Point", "coordinates": [ 2.7870169, 41.6761848 ] } },
{ "type": "Feature", "properties": { "fid": 22, "id": "relation\/1256039", "name": "Hospital de Santa Caterina", "CODI.EDAR": "DGIR", "NOM.EDAR": "GIRONA" }, "geometry": { "type": "Point", "coordinates": [ 2.796692, 41.9695422 ] } },
{ "type": "Feature", "properties": { "fid": 23, "id": "relation\/3671410", "name": "Parc Hospitalari Martí i Julià (Hospital de Salt)", "CODI.EDAR": "DGIR", "NOM.EDAR": "GIRONA" }, "geometry": { "type": "Point", "coordinates": [ 2.7965972, 41.9705243 ] } },
{ "type": "Feature", "properties": { "fid": 24, "id": "way\/182543878", "name": "Clínica Salus Infirmorum", "CODI.EDAR": "DBAY", "NOM.EDAR": "BANYOLES" }, "geometry": { "type": "Point", "coordinates": [ 2.761239, 42.1147776 ] } },
{ "type": "Feature", "properties": { "fid": 25, "id": "node\/2089304456", "name": "Pius Hospital de Valls", "CODI.EDAR": "DVAL", "NOM.EDAR": "VALLS POBLE" }, "geometry": { "type": "Point", "coordinates": [ 1.2513744, 41.2830927 ] } },
{ "type": "Feature", "properties": { "fid": 26, "id": "way\/185440694", "name": "Hospital del Vendrell", "CODI.EDAR": "DVEN", "NOM.EDAR": "RIERA DE LA BISBAL" }, "geometry": { "type": "Point", "coordinates": [ 1.5537401, 41.227101 ] } },
{ "type": "Feature", "properties": { "fid": 27, "id": "way\/190401225", "name": "Hospital transfronterer de la Cerdanya", "CODI.EDAR": "DPUI", "NOM.EDAR": "PUIGCERDÀ" }, "geometry": { "type": "Point", "coordinates": [ 1.9300879, 42.4440626 ] } },
{ "type": "Feature", "properties": { "fid": 28, "id": "way\/231777007", "name": "Hospital de Puigcerdà", "CODI.EDAR": "DPUI", "NOM.EDAR": "PUIGCERDÀ" }, "geometry": { "type": "Point", "coordinates": [ 1.9261003, 42.4323198 ] } },
{ "type": "Feature", "properties": { "fid": 29, "id": "way\/157373584", "name": "Hospital Sant Bernabé", "CODI.EDAR": "DBER", "NOM.EDAR": "BERGA" }, "geometry": { "type": "Point", "coordinates": [ 1.8521518, 42.1066474 ] } },
{ "type": "Feature", "properties": { "fid": 30, "id": "way\/89825109", "name": "Sociosanitari Francoli", "CODI.EDAR": "DTAR", "NOM.EDAR": "TARRAGONA" }, "geometry": { "type": "Point", "coordinates": [ 1.2393135, 41.1249493 ] } },
{ "type": "Feature", "properties": { "fid": 31, "id": "way\/89825168", "name": "Hospital Universitari de Tarragona Joan XXIII", "CODI.EDAR": "DTAR", "NOM.EDAR": "TARRAGONA" }, "geometry": { "type": "Point", "coordinates": [ 1.2383768, 41.1246068 ] } },
{ "type": "Feature", "properties": { "fid": 32, "id": "way\/108159617", "name": "Hospital Casa Blanca", "CODI.EDAR": "DTAR", "NOM.EDAR": "TARRAGONA" }, "geometry": { "type": "Point", "coordinates": [ 1.2636481, 41.1213944 ] } },
{ "type": "Feature", "properties": { "fid": 33, "id": "way\/274282041", "name": "Hospital de Sant Pau i Santa tecla", "CODI.EDAR": "DTAR", "NOM.EDAR": "TARRAGONA" }, "geometry": { "type": "Point", "coordinates": [ 1.2546063, 41.1160571 ] } },
{ "type": "Feature", "properties": { "fid": 34, "id": "way\/424986652", "name": "Hospital de la Santa Creu", "CODI.EDAR": "DTOT", "NOM.EDAR": "TORTOSA-ROQUETES" }, "geometry": { "type": "Point", "coordinates": [ 0.5095964, 40.827839 ] } },
{ "type": "Feature", "properties": { "fid": 35, "id": "way\/634397775", "name": "Hospital de Tortosa Verge de la Cinta", "CODI.EDAR": "DTOT", "NOM.EDAR": "TORTOSA-ROQUETES" }, "geometry": { "type": "Point", "coordinates": [ 0.5242702, 40.8111476 ] } },
{ "type": "Feature", "properties": { "fid": 36, "id": "node\/5918370167", "name": "Mutua Universal", "CODI.EDAR": "DTOT", "NOM.EDAR": "TORTOSA-ROQUETES" }, "geometry": { "type": "Point", "coordinates": [ 0.5213739, 40.8037029 ] } },
{ "type": "Feature", "properties": { "fid": 37, "id": "way\/63924501", "name": "Hospital Dr. Josep Trueta", "CODI.EDAR": "DGIR", "NOM.EDAR": "GIRONA" }, "geometry": { "type": "Point", "coordinates": [ 2.8201258, 41.997625 ] } },
{ "type": "Feature", "properties": { "fid": 38, "id": "relation\/5678937", "name": "Hospital Universitari Germans Trias i Pujol", "CODI.EDAR": "DBSS", "NOM.EDAR": "BESÒS" }, "geometry": { "type": "Point", "coordinates": [ 2.2378801, 41.4810989 ] } },
{ "type": "Feature", "properties": { "fid": 39, "id": "way\/109597365", "name": "Institut Guttmann", "CODI.EDAR": "DBSS", "NOM.EDAR": "BESÒS" }, "geometry": { "type": "Point", "coordinates": [ 2.2370021, 41.4788818 ] } },
{ "type": "Feature", "properties": { "fid": 40, "id": "relation\/6046838", "name": "Hospital del Mar", "CODI.EDAR": "DPDL", "NOM.EDAR": "PRAT DE LLOBREGAT, EL" }, "geometry": { "type": "Point", "coordinates": [ 2.1940114, 41.383781 ] } },
{ "type": "Feature", "properties": { "fid": 41, "id": "way\/34210749", "name": "Hospital Sant Rafael", "CODI.EDAR": "DPDL", "NOM.EDAR": "PRAT DE LLOBREGAT, EL" }, "geometry": { "type": "Point", "coordinates": [ 2.1410218, 41.4257913 ] } },
{ "type": "Feature", "properties": { "fid": 42, "id": "way\/34210754", "name": "Hospital General Vall d'Hebron", "CODI.EDAR": "DPDL", "NOM.EDAR": "PRAT DE LLOBREGAT, EL" }, "geometry": { "type": "Point", "coordinates": [ 2.1416677, 41.4277641 ] } },
{ "type": "Feature", "properties": { "fid": 43, "id": "way\/37038151", "name": "Hospital Quiron", "CODI.EDAR": "DPDL", "NOM.EDAR": "PRAT DE LLOBREGAT, EL" }, "geometry": { "type": "Point", "coordinates": [ 2.1385969, 41.4158555 ] } },
{ "type": "Feature", "properties": { "fid": 44, "id": "way\/37038432", "name": "Parc Sanitari Pere Virgili", "CODI.EDAR": "DPDL", "NOM.EDAR": "PRAT DE LLOBREGAT, EL" }, "geometry": { "type": "Point", "coordinates": [ 2.1408707, 41.4153287 ] } },
{ "type": "Feature", "properties": { "fid": 45, "id": "way\/132578921", "name": "Clínica del Pilar", "CODI.EDAR": "DPDL", "NOM.EDAR": "PRAT DE LLOBREGAT, EL" }, "geometry": { "type": "Point", "coordinates": [ 2.1482117, 41.400212 ] } },
{ "type": "Feature", "properties": { "fid": 46, "id": "way\/141698379", "name": "Clínica Teknon", "CODI.EDAR": "DPDL", "NOM.EDAR": "PRAT DE LLOBREGAT, EL" }, "geometry": { "type": "Point", "coordinates": [ 2.1278903, 41.4063869 ] } },
{ "type": "Feature", "properties": { "fid": 47, "id": "way\/176978234", "name": "Hospital Clínic", "CODI.EDAR": "DPDL", "NOM.EDAR": "PRAT DE LLOBREGAT, EL" }, "geometry": { "type": "Point", "coordinates": [ 2.1522417, 41.3894753 ] } },
{ "type": "Feature", "properties": { "fid": 48, "id": "way\/197496694", "name": "Hospital de Sant Miquel. Fundació Alba", "CODI.EDAR": "DPDL", "NOM.EDAR": "PRAT DE LLOBREGAT, EL" }, "geometry": { "type": "Point", "coordinates": [ 2.1456184, 41.4355012 ] } },
{ "type": "Feature", "properties": { "fid": 49, "id": "way\/237965791", "name": "hospital de l'Esperança", "CODI.EDAR": "DPDL", "NOM.EDAR": "PRAT DE LLOBREGAT, EL" }, "geometry": { "type": "Point", "coordinates": [ 2.1545553, 41.4106362 ] } },
{ "type": "Feature", "properties": { "fid": 50, "id": "way\/265391701", "name": "Hospital de la Santa Creu i Sant Pau", "CODI.EDAR": "DPDL", "NOM.EDAR": "PRAT DE LLOBREGAT, EL" }, "geometry": { "type": "Point", "coordinates": [ 2.1743117, 41.4151353 ] } },
{ "type": "Feature", "properties": { "fid": 51, "id": "way\/273777907", "name": "Fundació Puigvert - Iuna", "CODI.EDAR": "DPDL", "NOM.EDAR": "PRAT DE LLOBREGAT, EL" }, "geometry": { "type": "Point", "coordinates": [ 2.1727758, 41.4129259 ] } },
{ "type": "Feature", "properties": { "fid": 52, "id": "way\/285759145", "name": "Cliníca Sagrada Família", "CODI.EDAR": "DPDL", "NOM.EDAR": "PRAT DE LLOBREGAT, EL" }, "geometry": { "type": "Point", "coordinates": [ 2.1341745, 41.4004669 ] } },
{ "type": "Feature", "properties": { "fid": 53, "id": "way\/403379167", "name": "Hospital del Mar-urgències", "CODI.EDAR": "DPDL", "NOM.EDAR": "PRAT DE LLOBREGAT, EL" }, "geometry": { "type": "Point", "coordinates": [ 2.1933174, 41.3836763 ] } },
{ "type": "Feature", "properties": { "fid": 54, "id": "way\/434767944", "name": "Consorci Mar Parc de Salut de Barcelona", "CODI.EDAR": "DPDL", "NOM.EDAR": "PRAT DE LLOBREGAT, EL" }, "geometry": { "type": "Point", "coordinates": [ 2.2185082, 41.4127594 ] } },
{ "type": "Feature", "properties": { "fid": 55, "id": "way\/446633305", "name": "Hospital Sant Joan de Déu", "CODI.EDAR": "DPDL", "NOM.EDAR": "PRAT DE LLOBREGAT, EL" }, "geometry": { "type": "Point", "coordinates": [ 2.1018898, 41.3843515 ] } },
{ "type": "Feature", "properties": { "fid": 56, "id": "way\/454023490", "name": "Fundació sanitaria Sant Pere Claver", "CODI.EDAR": "DPDL", "NOM.EDAR": "PRAT DE LLOBREGAT, EL" }, "geometry": { "type": "Point", "coordinates": [ 2.1733834, 41.3730597 ] } },
{ "type": "Feature", "properties": { "fid": 57, "id": "way\/526811861", "name": "Clínica Nostra Senyora del Remei", "CODI.EDAR": "DPDL", "NOM.EDAR": "PRAT DE LLOBREGAT, EL" }, "geometry": { "type": "Point", "coordinates": [ 2.1598124, 41.4096404 ] } },
{ "type": "Feature", "properties": { "fid": 58, "id": "node\/583257940", "name": "Clinica Delfos", "CODI.EDAR": "DPDL", "NOM.EDAR": "PRAT DE LLOBREGAT, EL" }, "geometry": { "type": "Point", "coordinates": [ 2.1426945, 41.4134446 ] } },
{ "type": "Feature", "properties": { "fid": 59, "id": "way\/619973212", "name": "Capio Hospital Universitari Sagrat Cor", "CODI.EDAR": "DPDL", "NOM.EDAR": "PRAT DE LLOBREGAT, EL" }, "geometry": { "type": "Point", "coordinates": [ 2.1456033, 41.3889427 ] } },
{ "type": "Feature", "properties": { "fid": 60, "id": "way\/649274874", "name": "Hospital Universitari Quirón Dexeus", "CODI.EDAR": "DPDL", "NOM.EDAR": "PRAT DE LLOBREGAT, EL" }, "geometry": { "type": "Point", "coordinates": [ 2.1257795, 41.3848057 ] } },
{ "type": "Feature", "properties": { "fid": 61, "id": "way\/649274937", "name": "Hospital Casa Maternitat", "CODI.EDAR": "DPDL", "NOM.EDAR": "PRAT DE LLOBREGAT, EL" }, "geometry": { "type": "Point", "coordinates": [ 2.123552, 41.3852022 ] } },
{ "type": "Feature", "properties": { "fid": 62, "id": "way\/652138716", "name": "Hospital de Barcelona", "CODI.EDAR": "DPDL", "NOM.EDAR": "PRAT DE LLOBREGAT, EL" }, "geometry": { "type": "Point", "coordinates": [ 2.1297441, 41.3898885 ] } },
{ "type": "Feature", "properties": { "fid": 63, "id": "way\/719378012", "name": "Hospital Mare de Déu de la Mercè", "CODI.EDAR": "DPDL", "NOM.EDAR": "PRAT DE LLOBREGAT, EL" }, "geometry": { "type": "Point", "coordinates": [ 2.161915, 41.4378681 ] } },
{ "type": "Feature", "properties": { "fid": 64, "id": "way\/770659186", "name": "Hospital del Mar", "CODI.EDAR": "DPDL", "NOM.EDAR": "PRAT DE LLOBREGAT, EL" }, "geometry": { "type": "Point", "coordinates": [ 2.1938899, 41.3838677 ] } },
{ "type": "Feature", "properties": { "fid": 65, "id": "node\/1421923066", "name": "Dos de Maig", "CODI.EDAR": "DPDL", "NOM.EDAR": "PRAT DE LLOBREGAT, EL" }, "geometry": { "type": "Point", "coordinates": [ 2.1765803, 41.4109133 ] } },
{ "type": "Feature", "properties": { "fid": 66, "id": "node\/1502975001", "name": "Hospital Evangèlic", "CODI.EDAR": "DPDL", "NOM.EDAR": "PRAT DE LLOBREGAT, EL" }, "geometry": { "type": "Point", "coordinates": [ 2.1590499, 41.4111635 ] } },
{ "type": "Feature", "properties": { "fid": 67, "id": "node\/4682149921", "name": "Hospital de Nens de Barcelona", "CODI.EDAR": "DPDL", "NOM.EDAR": "PRAT DE LLOBREGAT, EL" }, "geometry": { "type": "Point", "coordinates": [ 2.1733003, 41.3970879 ] } },
{ "type": "Feature", "properties": { "fid": 68, "id": "node\/6024040372", "name": "Centre mèdic Sanitas Robresa", "CODI.EDAR": "DPDL", "NOM.EDAR": "PRAT DE LLOBREGAT, EL" }, "geometry": { "type": "Point", "coordinates": [ 2.1496367, 41.3996176 ] } },
{ "type": "Feature", "properties": { "fid": 69, "id": "node\/6387301098", "name": "Hospital Plató", "CODI.EDAR": "DPDL", "NOM.EDAR": "PRAT DE LLOBREGAT, EL" }, "geometry": { "type": "Point", "coordinates": [ 2.1418871, 41.4016023 ] } },
{ "type": "Feature", "properties": { "fid": 70, "id": "relation\/6046838", "name": "Hospital del Mar", "CODI.EDAR": "DBSS", "NOM.EDAR": "BESÒS" }, "geometry": { "type": "Point", "coordinates": [ 2.1940114, 41.383781 ] } },
{ "type": "Feature", "properties": { "fid": 71, "id": "way\/34210749", "name": "Hospital Sant Rafael", "CODI.EDAR": "DBSS", "NOM.EDAR": "BESÒS" }, "geometry": { "type": "Point", "coordinates": [ 2.1410218, 41.4257913 ] } },
{ "type": "Feature", "properties": { "fid": 72, "id": "way\/34210754", "name": "Hospital General Vall d'Hebron", "CODI.EDAR": "DBSS", "NOM.EDAR": "BESÒS" }, "geometry": { "type": "Point", "coordinates": [ 2.1416677, 41.4277641 ] } },
{ "type": "Feature", "properties": { "fid": 73, "id": "way\/37038151", "name": "Hospital Quiron", "CODI.EDAR": "DBSS", "NOM.EDAR": "BESÒS" }, "geometry": { "type": "Point", "coordinates": [ 2.1385969, 41.4158555 ] } },
{ "type": "Feature", "properties": { "fid": 74, "id": "way\/37038432", "name": "Parc Sanitari Pere Virgili", "CODI.EDAR": "DBSS", "NOM.EDAR": "BESÒS" }, "geometry": { "type": "Point", "coordinates": [ 2.1408707, 41.4153287 ] } },
{ "type": "Feature", "properties": { "fid": 75, "id": "way\/132578921", "name": "Clínica del Pilar", "CODI.EDAR": "DBSS", "NOM.EDAR": "BESÒS" }, "geometry": { "type": "Point", "coordinates": [ 2.1482117, 41.400212 ] } },
{ "type": "Feature", "properties": { "fid": 76, "id": "way\/141698379", "name": "Clínica Teknon", "CODI.EDAR": "DBSS", "NOM.EDAR": "BESÒS" }, "geometry": { "type": "Point", "coordinates": [ 2.1278903, 41.4063869 ] } },
{ "type": "Feature", "properties": { "fid": 77, "id": "way\/176978234", "name": "Hospital Clínic", "CODI.EDAR": "DBSS", "NOM.EDAR": "BESÒS" }, "geometry": { "type": "Point", "coordinates": [ 2.1522417, 41.3894753 ] } },
{ "type": "Feature", "properties": { "fid": 78, "id": "way\/197496694", "name": "Hospital de Sant Miquel. Fundació Alba", "CODI.EDAR": "DBSS", "NOM.EDAR": "BESÒS" }, "geometry": { "type": "Point", "coordinates": [ 2.1456184, 41.4355012 ] } },
{ "type": "Feature", "properties": { "fid": 79, "id": "way\/237965791", "name": "hospital de l'Esperança", "CODI.EDAR": "DBSS", "NOM.EDAR": "BESÒS" }, "geometry": { "type": "Point", "coordinates": [ 2.1545553, 41.4106362 ] } },
{ "type": "Feature", "properties": { "fid": 80, "id": "way\/265391701", "name": "Hospital de la Santa Creu i Sant Pau", "CODI.EDAR": "DBSS", "NOM.EDAR": "BESÒS" }, "geometry": { "type": "Point", "coordinates": [ 2.1743117, 41.4151353 ] } },
{ "type": "Feature", "properties": { "fid": 81, "id": "way\/273777907", "name": "Fundació Puigvert - Iuna", "CODI.EDAR": "DBSS", "NOM.EDAR": "BESÒS" }, "geometry": { "type": "Point", "coordinates": [ 2.1727758, 41.4129259 ] } },
{ "type": "Feature", "properties": { "fid": 82, "id": "way\/285759145", "name": "Cliníca Sagrada Família", "CODI.EDAR": "DBSS", "NOM.EDAR": "BESÒS" }, "geometry": { "type": "Point", "coordinates": [ 2.1341745, 41.4004669 ] } },
{ "type": "Feature", "properties": { "fid": 83, "id": "way\/403379167", "name": "Hospital del Mar-urgències", "CODI.EDAR": "DBSS", "NOM.EDAR": "BESÒS" }, "geometry": { "type": "Point", "coordinates": [ 2.1933174, 41.3836763 ] } },
{ "type": "Feature", "properties": { "fid": 84, "id": "way\/434767944", "name": "Consorci Mar Parc de Salut de Barcelona", "CODI.EDAR": "DBSS", "NOM.EDAR": "BESÒS" }, "geometry": { "type": "Point", "coordinates": [ 2.2185082, 41.4127594 ] } },
{ "type": "Feature", "properties": { "fid": 85, "id": "way\/446633305", "name": "Hospital Sant Joan de Déu", "CODI.EDAR": "DBSS", "NOM.EDAR": "BESÒS" }, "geometry": { "type": "Point", "coordinates": [ 2.1018898, 41.3843515 ] } },
{ "type": "Feature", "properties": { "fid": 86, "id": "way\/454023490", "name": "Fundació sanitaria Sant Pere Claver", "CODI.EDAR": "DBSS", "NOM.EDAR": "BESÒS" }, "geometry": { "type": "Point", "coordinates": [ 2.1733834, 41.3730597 ] } },
{ "type": "Feature", "properties": { "fid": 87, "id": "way\/526811861", "name": "Clínica Nostra Senyora del Remei", "CODI.EDAR": "DBSS", "NOM.EDAR": "BESÒS" }, "geometry": { "type": "Point", "coordinates": [ 2.1598124, 41.4096404 ] } },
{ "type": "Feature", "properties": { "fid": 88, "id": "node\/583257940", "name": "Clinica Delfos", "CODI.EDAR": "DBSS", "NOM.EDAR": "BESÒS" }, "geometry": { "type": "Point", "coordinates": [ 2.1426945, 41.4134446 ] } },
{ "type": "Feature", "properties": { "fid": 89, "id": "way\/619973212", "name": "Capio Hospital Universitari Sagrat Cor", "CODI.EDAR": "DBSS", "NOM.EDAR": "BESÒS" }, "geometry": { "type": "Point", "coordinates": [ 2.1456033, 41.3889427 ] } },
{ "type": "Feature", "properties": { "fid": 90, "id": "way\/649274874", "name": "Hospital Universitari Quirón Dexeus", "CODI.EDAR": "DBSS", "NOM.EDAR": "BESÒS" }, "geometry": { "type": "Point", "coordinates": [ 2.1257795, 41.3848057 ] } },
{ "type": "Feature", "properties": { "fid": 91, "id": "way\/649274937", "name": "Hospital Casa Maternitat", "CODI.EDAR": "DBSS", "NOM.EDAR": "BESÒS" }, "geometry": { "type": "Point", "coordinates": [ 2.123552, 41.3852022 ] } },
{ "type": "Feature", "properties": { "fid": 92, "id": "way\/652138716", "name": "Hospital de Barcelona", "CODI.EDAR": "DBSS", "NOM.EDAR": "BESÒS" }, "geometry": { "type": "Point", "coordinates": [ 2.1297441, 41.3898885 ] } },
{ "type": "Feature", "properties": { "fid": 93, "id": "way\/719378012", "name": "Hospital Mare de Déu de la Mercè", "CODI.EDAR": "DBSS", "NOM.EDAR": "BESÒS" }, "geometry": { "type": "Point", "coordinates": [ 2.161915, 41.4378681 ] } },
{ "type": "Feature", "properties": { "fid": 94, "id": "way\/770659186", "name": "Hospital del Mar", "CODI.EDAR": "DBSS", "NOM.EDAR": "BESÒS" }, "geometry": { "type": "Point", "coordinates": [ 2.1938899, 41.3838677 ] } },
{ "type": "Feature", "properties": { "fid": 95, "id": "node\/1421923066", "name": "Dos de Maig", "CODI.EDAR": "DBSS", "NOM.EDAR": "BESÒS" }, "geometry": { "type": "Point", "coordinates": [ 2.1765803, 41.4109133 ] } },
{ "type": "Feature", "properties": { "fid": 96, "id": "node\/1502975001", "name": "Hospital Evangèlic", "CODI.EDAR": "DBSS", "NOM.EDAR": "BESÒS" }, "geometry": { "type": "Point", "coordinates": [ 2.1590499, 41.4111635 ] } },
{ "type": "Feature", "properties": { "fid": 97, "id": "node\/4682149921", "name": "Hospital de Nens de Barcelona", "CODI.EDAR": "DBSS", "NOM.EDAR": "BESÒS" }, "geometry": { "type": "Point", "coordinates": [ 2.1733003, 41.3970879 ] } },
{ "type": "Feature", "properties": { "fid": 98, "id": "node\/6024040372", "name": "Centre mèdic Sanitas Robresa", "CODI.EDAR": "DBSS", "NOM.EDAR": "BESÒS" }, "geometry": { "type": "Point", "coordinates": [ 2.1496367, 41.3996176 ] } },
{ "type": "Feature", "properties": { "fid": 99, "id": "node\/6387301098", "name": "Hospital Plató", "CODI.EDAR": "DBSS", "NOM.EDAR": "BESÒS" }, "geometry": { "type": "Point", "coordinates": [ 2.1418871, 41.4016023 ] } },
{ "type": "Feature", "properties": { "fid": 100, "id": "relation\/2815275", "name": "Hospital Comarcal de l'Alt Penedès", "CODI.EDAR": "DVDP", "NOM.EDAR": "VILAFRANCA DEL PENEDÈS" }, "geometry": { "type": "Point", "coordinates": [ 1.704741, 41.3565909 ] } },
{ "type": "Feature", "properties": { "fid": 101, "id": "way\/159368848", "name": "Hospital General de l'Hospitalet", "CODI.EDAR": "DPDL", "NOM.EDAR": "PRAT DE LLOBREGAT, EL" }, "geometry": { "type": "Point", "coordinates": [ 2.107182, 41.3741705 ] } },
{ "type": "Feature", "properties": { "fid": 102, "id": "way\/248055112", "name": "Hospital Universitari de Bellvitge", "CODI.EDAR": "DPDL", "NOM.EDAR": "PRAT DE LLOBREGAT, EL" }, "geometry": { "type": "Point", "coordinates": [ 2.1046476, 41.3452979 ] } },
{ "type": "Feature", "properties": { "fid": 103, "id": "way\/785933079", "name": "Hospital Duran i Reynals", "CODI.EDAR": "DPDL", "NOM.EDAR": "PRAT DE LLOBREGAT, EL" }, "geometry": { "type": "Point", "coordinates": [ 2.1114594, 41.3452638 ] } },
{ "type": "Feature", "properties": { "fid": 104, "id": "way\/608124698", "name": "Hospital Comarcal de Sant Antoni Abat", "CODI.EDAR": "DVLG", "NOM.EDAR": "VILANOVA I LA GELTRÚ" }, "geometry": { "type": "Point", "coordinates": [ 1.7223936, 41.2287946 ] } },
{ "type": "Feature", "properties": { "fid": 105, "id": "way\/330690662", "name": "Hospital Comarcal d'Igualada", "CODI.EDAR": "DIGU", "NOM.EDAR": "IGUALADA" }, "geometry": { "type": "Point", "coordinates": [ 1.6200718, 41.5886921 ] } },
{ "type": "Feature", "properties": { "fid": 106, "id": "way\/730906225", "name": "Hospital Hestia Balaguer", "CODI.EDAR": "DBAL", "NOM.EDAR": "BALAGUER" }, "geometry": { "type": "Point", "coordinates": [ 0.8197245, 41.7890959 ] } },
{ "type": "Feature", "properties": { "fid": 107, "id": "node\/1607334474", "name": "Hospital Comarcal d'Amposta", "CODI.EDAR": "DAMP", "NOM.EDAR": "AMPOSTA" }, "geometry": { "type": "Point", "coordinates": [ 0.5806326, 40.7068178 ] } },
{ "type": "Feature", "properties": { "fid": 108, "id": "node\/1961228990", "name": "Unitat Polivalent d'Amposta", "CODI.EDAR": "DAMP", "NOM.EDAR": "AMPOSTA" }, "geometry": { "type": "Point", "coordinates": [ 0.5759553, 40.7090381 ] } },
{ "type": "Feature", "properties": { "fid": 109, "id": "way\/319293470", "name": "Hospital Universitari de Vic", "CODI.EDAR": "DVIC", "NOM.EDAR": "VIC" }, "geometry": { "type": "Point", "coordinates": [ 2.2601748, 41.9369327 ] } },
{ "type": "Feature", "properties": { "fid": 110, "id": "way\/364660476", "name": "Hospital Universitari de la Santa Creu", "CODI.EDAR": "DVIC", "NOM.EDAR": "VIC" }, "geometry": { "type": "Point", "coordinates": [ 2.2508544, 41.9277452 ] } },
{ "type": "Feature", "properties": { "fid": 111, "id": "way\/72860347", "name": "Hospital-Asil de Granollers", "CODI.EDAR": "DMDV", "NOM.EDAR": "MONTORNÈS DEL VALLÈS" }, "geometry": { "type": "Point", "coordinates": [ 2.296247, 41.6140085 ] } },
{ "type": "Feature", "properties": { "fid": 112, "id": "node\/504757041", "name": "Fundació Hospital Asil de Granollers", "CODI.EDAR": "DMDV", "NOM.EDAR": "MONTORNÈS DEL VALLÈS" }, "geometry": { "type": "Point", "coordinates": [ 2.2959097, 41.6134098 ] } },
{ "type": "Feature", "properties": { "fid": 113, "id": "way\/125733870", "name": "Hospital de Sant LLorenç", "CODI.EDAR": "DGVC", "NOM.EDAR": "GAVÀ\/VILADECANS" }, "geometry": { "type": "Point", "coordinates": [ 2.014323, 41.3123133 ] } },
{ "type": "Feature", "properties": { "fid": 114, "id": "way\/72860347", "name": "Hospital-Asil de Granollers", "CODI.EDAR": "DGRA", "NOM.EDAR": "GRANOLLERS" }, "geometry": { "type": "Point", "coordinates": [ 2.296247, 41.6140085 ] } },
{ "type": "Feature", "properties": { "fid": 115, "id": "node\/504757041", "name": "Fundació Hospital Asil de Granollers", "CODI.EDAR": "DGRA", "NOM.EDAR": "GRANOLLERS" }, "geometry": { "type": "Point", "coordinates": [ 2.2959097, 41.6134098 ] } },
{ "type": "Feature", "properties": { "fid": 116, "id": "way\/475169856", "name": "Hospital de Sant Joan Despí Moisès Broggi", "CODI.EDAR": "DPDL", "NOM.EDAR": "PRAT DE LLOBREGAT, EL" }, "geometry": { "type": "Point", "coordinates": [ 2.0724737, 41.3733236 ] } },
{ "type": "Feature", "properties": { "fid": 117, "id": "way\/123266981", "name": "Clínica Diagonal", "CODI.EDAR": "DPDL", "NOM.EDAR": "PRAT DE LLOBREGAT, EL" }, "geometry": { "type": "Point", "coordinates": [ 2.0977085, 41.3789216 ] } },
{ "type": "Feature", "properties": { "fid": 118, "id": "way\/214475925", "name": "Hospital Comarcal de Móra d'Ebre", "CODI.EDAR": "DMLN", "NOM.EDAR": "MÓRA D'EBRE\/MÓRA LA NOVA" }, "geometry": { "type": "Point", "coordinates": [ 0.6388443, 41.0952891 ] } },
{ "type": "Feature", "properties": { "fid": 119, "id": "way\/222555142", "name": "Parc Sanitari Sant Joan de Déu", "CODI.EDAR": "DPDL", "NOM.EDAR": "PRAT DE LLOBREGAT, EL" }, "geometry": { "type": "Point", "coordinates": [ 2.0344361, 41.3527576 ] } },
{ "type": "Feature", "properties": { "fid": 120, "id": "way\/465976914", "name": "Complex Assistencial en Salut Mental Benito Menni", "CODI.EDAR": "DPDL", "NOM.EDAR": "PRAT DE LLOBREGAT, EL" }, "geometry": { "type": "Point", "coordinates": [ 2.0369672, 41.3497068 ] } },
{ "type": "Feature", "properties": { "fid": 121, "id": "way\/222555142", "name": "Parc Sanitari Sant Joan de Déu", "CODI.EDAR": "DGVC", "NOM.EDAR": "GAVÀ\/VILADECANS" }, "geometry": { "type": "Point", "coordinates": [ 2.0344361, 41.3527576 ] } },
{ "type": "Feature", "properties": { "fid": 122, "id": "way\/465976914", "name": "Complex Assistencial en Salut Mental Benito Menni", "CODI.EDAR": "DGVC", "NOM.EDAR": "GAVÀ\/VILADECANS" }, "geometry": { "type": "Point", "coordinates": [ 2.0369672, 41.3497068 ] } },
{ "type": "Feature", "properties": { "fid": 123, "id": "way\/125551811", "name": "Hospital General de Catalunya", "CODI.EDAR": "DSFL", "NOM.EDAR": "SANT FELIU DE LLOBREGAT" }, "geometry": { "type": "Point", "coordinates": [ 2.0446332, 41.4749104 ] } },
{ "type": "Feature", "properties": { "fid": 124, "id": "way\/125826128", "name": "Asepeyo", "CODI.EDAR": "DSFL", "NOM.EDAR": "SANT FELIU DE LLOBREGAT" }, "geometry": { "type": "Point", "coordinates": [ 2.0784329, 41.4901025 ] } },
{ "type": "Feature", "properties": { "fid": 125, "id": "way\/163961107", "name": "Salus XXI Medical Group", "CODI.EDAR": "DSFL", "NOM.EDAR": "SANT FELIU DE LLOBREGAT" }, "geometry": { "type": "Point", "coordinates": [ 2.0608001, 41.4811493 ] } },
{ "type": "Feature", "properties": { "fid": 126, "id": "way\/125551811", "name": "Hospital General de Catalunya", "CODI.EDAR": "DRUB", "NOM.EDAR": "RUBÍ" }, "geometry": { "type": "Point", "coordinates": [ 2.0446332, 41.4749104 ] } },
{ "type": "Feature", "properties": { "fid": 127, "id": "way\/125826128", "name": "Asepeyo", "CODI.EDAR": "DRUB", "NOM.EDAR": "RUBÍ" }, "geometry": { "type": "Point", "coordinates": [ 2.0784329, 41.4901025 ] } },
{ "type": "Feature", "properties": { "fid": 128, "id": "way\/163961107", "name": "Salus XXI Medical Group", "CODI.EDAR": "DRUB", "NOM.EDAR": "RUBÍ" }, "geometry": { "type": "Point", "coordinates": [ 2.0608001, 41.4811493 ] } },
{ "type": "Feature", "properties": { "fid": 129, "id": "way\/125551811", "name": "Hospital General de Catalunya", "CODI.EDAR": "DMIR", "NOM.EDAR": "MONTCADA" }, "geometry": { "type": "Point", "coordinates": [ 2.0446332, 41.4749104 ] } },
{ "type": "Feature", "properties": { "fid": 130, "id": "way\/125826128", "name": "Asepeyo", "CODI.EDAR": "DMIR", "NOM.EDAR": "MONTCADA" }, "geometry": { "type": "Point", "coordinates": [ 2.0784329, 41.4901025 ] } },
{ "type": "Feature", "properties": { "fid": 131, "id": "way\/163961107", "name": "Salus XXI Medical Group", "CODI.EDAR": "DMIR", "NOM.EDAR": "MONTCADA" }, "geometry": { "type": "Point", "coordinates": [ 2.0608001, 41.4811493 ] } },
{ "type": "Feature", "properties": { "fid": 132, "id": "node\/3499195060", "name": "Hospital d'Olot i comarcal de la Garrotxa", "CODI.EDAR": "DOLO", "NOM.EDAR": "OLOT" }, "geometry": { "type": "Point", "coordinates": [ 2.4675162, 42.1874622 ] } },
{ "type": "Feature", "properties": { "fid": 133, "id": "way\/199678883", "name": "Hospital de Palamós", "CODI.EDAR": "DPAM", "NOM.EDAR": "PALAMÓS" }, "geometry": { "type": "Point", "coordinates": [ 3.1316865, 41.8528043 ] } },
{ "type": "Feature", "properties": { "fid": 134, "id": "node\/904021132", "name": "Hospital Comarcal del Pallars", "CODI.EDAR": "DTRP", "NOM.EDAR": "TREMP" }, "geometry": { "type": "Point", "coordinates": [ 0.8973612, 42.1644941 ] } },
{ "type": "Feature", "properties": { "fid": 135, "id": "relation\/4136630", "name": "Hospital Sant Joan de Déu de Manresa", "CODI.EDAR": "DMAS", "NOM.EDAR": "MANRESA" }, "geometry": { "type": "Point", "coordinates": [ 1.8377411, 41.7206577 ] } },
{ "type": "Feature", "properties": { "fid": 136, "id": "way\/665597044", "name": "Clínica Sant Josep", "CODI.EDAR": "DMAS", "NOM.EDAR": "MANRESA" }, "geometry": { "type": "Point", "coordinates": [ 1.8324917, 41.722664 ] } },
{ "type": "Feature", "properties": { "fid": 137, "id": "way\/134164212", "name": "Hospital Neuropsiquiàtric Sagrat Cor", "CODI.EDAR": "DSFL", "NOM.EDAR": "SANT FELIU DE LLOBREGAT" }, "geometry": { "type": "Point", "coordinates": [ 1.9095689, 41.4946006 ] } },
{ "type": "Feature", "properties": { "fid": 138, "id": "way\/169694156", "name": "Sant Joan de Déu", "CODI.EDAR": "DSFL", "NOM.EDAR": "SANT FELIU DE LLOBREGAT" }, "geometry": { "type": "Point", "coordinates": [ 1.9203655, 41.4717117 ] } },
{ "type": "Feature", "properties": { "fid": 139, "id": "way\/134164212", "name": "Hospital Neuropsiquiàtric Sagrat Cor", "CODI.EDAR": "DMRT", "NOM.EDAR": "MARTORELL" }, "geometry": { "type": "Point", "coordinates": [ 1.9095689, 41.4946006 ] } },
{ "type": "Feature", "properties": { "fid": 140, "id": "way\/169694156", "name": "Sant Joan de Déu", "CODI.EDAR": "DMRT", "NOM.EDAR": "MARTORELL" }, "geometry": { "type": "Point", "coordinates": [ 1.9203655, 41.4717117 ] } },
{ "type": "Feature", "properties": { "fid": 141, "id": "way\/200209510", "name": "Espitau Val d'Aran", "CODI.EDAR": "DVIE", "NOM.EDAR": "VIELHA E MIJARAN" }, "geometry": { "type": "Point", "coordinates": [ 0.7974037, 42.7022147 ] } },
{ "type": "Feature", "properties": { "fid": 142, "id": "way\/34149199", "name": "Hospital de Mataró i Maresme", "CODI.EDAR": "DMAT", "NOM.EDAR": "MATARÓ" }, "geometry": { "type": "Point", "coordinates": [ 2.4301522, 41.5556209 ] } },
{ "type": "Feature", "properties": { "fid": 143, "id": "way\/183627263", "name": "Hospital de Mollet", "CODI.EDAR": "DMDV", "NOM.EDAR": "MONTORNÈS DEL VALLÈS" }, "geometry": { "type": "Point", "coordinates": [ 2.2024802, 41.5438271 ] } },
{ "type": "Feature", "properties": { "fid": 144, "id": "way\/206804085", "name": "Hospital Sociosanitari de Mollet", "CODI.EDAR": "DMDV", "NOM.EDAR": "MONTORNÈS DEL VALLÈS" }, "geometry": { "type": "Point", "coordinates": [ 2.2110255, 41.5411404 ] } },
{ "type": "Feature", "properties": { "fid": 145, "id": "way\/183627263", "name": "Hospital de Mollet", "CODI.EDAR": "DLLL", "NOM.EDAR": "LLAGOSTA, LA" }, "geometry": { "type": "Point", "coordinates": [ 2.2024802, 41.5438271 ] } },
{ "type": "Feature", "properties": { "fid": 146, "id": "way\/206804085", "name": "Hospital Sociosanitari de Mollet", "CODI.EDAR": "DLLL", "NOM.EDAR": "LLAGOSTA, LA" }, "geometry": { "type": "Point", "coordinates": [ 2.2110255, 41.5411404 ] } },
{ "type": "Feature", "properties": { "fid": 147, "id": "relation\/5335075", "name": "Hospital de Sant Celoni - Baix Montseny", "CODI.EDAR": null, "NOM.EDAR": null }, "geometry": { "type": "Point", "coordinates": [ 2.4858797, 41.687856 ] } },
{ "type": "Feature", "properties": { "fid": 148, "id": "way\/297147919", "name": "Hospital Comarcal Sant Jaume", "CODI.EDAR": null, "NOM.EDAR": null }, "geometry": { "type": "Point", "coordinates": [ 2.6566387, 41.6150296 ] } },
{ "type": "Feature", "properties": { "fid": 149, "id": "way\/659285368", "name": "Residència Sant Martí - Fundació Vella Terra", "CODI.EDAR": null, "NOM.EDAR": null }, "geometry": { "type": "Point", "coordinates": [ 2.5399589, 41.6099086 ] } },
{ "type": "Feature", "properties": { "fid": 150, "id": "way\/659285445", "name": "Residència Verge del Remei", "CODI.EDAR": null, "NOM.EDAR": null }, "geometry": { "type": "Point", "coordinates": [ 2.5399673, 41.6079669 ] } },
{ "type": "Feature", "properties": { "fid": 151, "id": "node\/4019856638", "name": "Hospital Lleuger Antoni de Gimbernat", "CODI.EDAR": null, "NOM.EDAR": null }, "geometry": { "type": "Point", "coordinates": [ 1.0574966, 41.0715397 ] } }
]
}
